,City,Cloudiness,Country,Date,Humidity,Max Temp,Lat,Long,Wind Speed
0,sayan,49,PE,1603995943,42,78.28,-11.14,-77.19,10.6
1,tuktoyaktuk,93,CA,1603995944,93,5.63,69.45,-133.04,5.1
2,butaritari,35,KI,1603995944,74,81.61,3.07,172.79,10.4
3,atuona,36,PF,1603995944,67,78.12,-9.8,-139.03,17.92
4,cape town,20,ZA,1603995944,50,57.0,-33.93,18.42,6.93
5,faya,0,SA,1603995330,36,66.2,18.39,42.45,6.89
6,longyearbyen,75,SJ,1603995487,57,21.2,78.22,15.64,18.34
7,hilo,90,US,1603995507,73,73.99,19.73,-155.09,4.7
8,ribeira grande,75,PT,1603995945,94,68.0,38.52,-28.7,10.29
9,lonevag,43,NO,1603995945,88,48.0,60.53,5.49,3.0
10,chanika,13,TZ,1603995946,87,69.24,-5.42,38.02,6.55
11,rikitea,100,PF,1603995946,73,74.64,-23.12,-134.97,10.69
12,mataura,95,NZ,1603995946,92,52.0,-46.19,168.86,1.99
13,souillac,49,MU,1603995946,64,71.01,-20.52,57.52,7.0
14,new norfolk,90,AU,1603995947,81,53.6,-42.78,147.06,1.88
15,vaini,20,TO,1603995947,77,69.8,-21.2,-175.2,10.29
16,saint george,1,US,1603995887,19,66.0,37.1,-113.58,3.36
17,hobart,90,AU,1603995884,81,53.6,-42.88,147.33,2.42
18,vardo,75,NO,1603995948,78,33.8,70.37,31.11,19.46
19,salta,90,AR,1603995948,76,55.4,-24.79,-65.41,4.7
20,geraldton,100,AU,1603995948,60,75.2,-28.77,114.6,10.29
21,suoyarvi,91,RU,1603995948,93,45.34,62.08,32.35,6.8
22,qaanaaq,0,GL,1603995948,73,5.29,77.48,-69.36,5.66
23,nara,97,JP,1603995949,57,55.99,34.69,135.8,5.28
24,iqaluit,57,CA,1603995949,91,8.22,63.75,-68.51,7.4
25,chuy,43,UY,1603995949,61,61.66,-33.7,-53.46,15.37
26,yellowknife,5,CA,1603995671,85,17.01,62.46,-114.35,5.99
27,esperance,0,AU,1603995950,93,48.2,-33.87,121.9,8.05
28,agapovka,96,RU,1603995950,47,37.4,53.3,59.13,7.63
29,albany,100,US,1603995950,89,46.99,42.6,-73.97,2.01
30,punta arenas,40,CL,1603995744,46,53.6,-53.15,-70.92,40.26
31,kodiak,1,US,1603995785,74,28.4,57.79,-152.41,4.7
32,kautokeino,78,NO,1603995952,94,21.97,69.01,23.04,4.65
33,saint-philippe,40,RE,1603995952,64,71.6,-21.36,55.77,19.46
34,kapaa,1,US,1603995952,83,69.8,22.08,-159.32,6.93
35,boguchany,99,RU,1603995953,94,23.54,58.38,97.45,10.67
36,port alfred,100,ZA,1603995953,80,63.21,-33.59,26.89,20.83
37,nantucket,90,US,1603995944,87,50.0,41.28,-70.1,5.82
38,cockburn town,40,TC,1603995953,70,84.2,21.46,-71.14,12.75
39,general pico,1,AR,1603995953,25,67.44,-35.66,-63.76,9.66
40,ushuaia,40,AR,1603995662,81,46.4,-54.8,-68.3,24.16
41,saldanha,11,ZA,1603995954,58,55.4,-33.01,17.94,6.93
42,novotroitskaya,0,RU,1603995954,93,53.01,45.33,41.53,11.18
43,torbay,72,CA,1603995658,83,41.0,47.67,-52.73,9.08
44,danielskuil,100,ZA,1603995955,42,68.77,-28.19,23.54,15.03
45,fruitvale,1,US,1603995955,52,51.01,39.08,-108.5,4.7
46,avarua,100,CK,1603995955,83,73.4,-21.21,-159.78,6.93
47,gazojak,0,TM,1603995955,58,42.57,41.19,61.4,12.97
48,lebu,0,CL,1603995955,68,54.34,-37.62,-73.65,21.72
49,jalgaon,0,IN,1603995956,42,75.61,21.02,75.57,4.83
50,ginda,0,IN,1603995956,44,50.13,30.69,78.49,5.84
51,isangel,5,VU,1603995956,81,74.14,-19.55,169.27,13.24
52,castro,99,BR,1603995730,44,78.3,-24.79,-50.01,10.36
53,mawlaik,75,MM,1603995957,80,75.24,23.63,94.42,0.65
54,provideniya,0,RU,1603995957,86,22.3,64.38,-173.3,6.98
55,puerto ayora,40,EC,1603995958,69,78.8,-0.74,-90.35,6.93
56,acapulco,40,MX,1603995958,70,86.0,16.86,-99.89,4.7
57,jinchang,2,CN,1603995958,60,43.36,38.5,102.17,5.66
58,bluff,98,NZ,1603995959,92,52.0,-46.6,168.33,1.99
59,coihaique,0,CL,1603995959,44,59.0,-45.58,-72.07,5.82
60,kamina,97,CD,1603995959,92,67.26,-8.74,24.99,3.27
61,yekaterinogradskaya,0,RU,1603995960,93,50.0,43.76,44.23,2.24
62,kruisfontein,100,ZA,1603995960,90,57.0,-34.0,24.73,3.0
63,georgetown,20,MY,1603995961,88,80.6,5.41,100.34,3.36
64,busselton,0,AU,1603995962,42,60.01,-33.65,115.33,12.55
65,unity,85,CA,1603995962,75,38.86,52.45,-109.17,7.54
66,baijiantan,36,CN,1603995963,61,41.95,45.63,85.18,19.64
67,oakdale,90,US,1603995963,55,36.0,44.96,-92.96,9.17
68,vestmannaeyjar,40,IS,1603995964,87,44.6,63.44,-20.27,14.99
69,makakilo city,75,US,1603995965,88,75.2,21.35,-158.09,3.36
70,ketchikan,90,US,1603995965,100,41.0,55.34,-131.65,3.15
71,zhoucheng,53,CN,1603995966,58,52.61,35.91,116.31,2.62
72,tuatapere,83,NZ,1603995967,92,52.0,-46.13,167.68,1.99
73,jamestown,90,US,1603995962,87,45.0,42.1,-79.24,5.82
74,komsomolskiy,1,UZ,1603995967,41,42.8,40.43,71.72,6.93
75,roma,90,US,1603995722,87,46.4,43.21,-75.46,4.7
76,aykhal,47,RU,1603995968,89,-8.46,66.0,111.5,2.48
77,naze,75,JP,1603995968,60,75.2,28.37,129.48,6.93
78,lagoa,100,PT,1603995969,87,68.65,39.05,-27.98,23.94
79,palm beach,59,US,1603995969,74,91.0,26.65,-80.45,5.01
80,stutterheim,75,ZA,1603995969,82,64.4,-32.57,27.42,17.22
81,cabo san lucas,5,MX,1603995970,50,84.0,22.89,-109.91,6.93
82,carutapera,38,BR,1603995970,61,87.35,-1.2,-46.02,11.34
83,bom jesus,33,BR,1603995971,41,93.96,-9.07,-44.36,8.39
84,port elizabeth,75,ZA,1603995971,82,59.0,-33.92,25.57,21.92
85,bambous virieux,55,MU,1603995972,64,71.01,-20.34,57.76,7.0
86,demba,46,CD,1603995972,97,70.57,-5.51,22.27,1.99
87,boca do acre,98,BR,1603995972,56,88.18,-8.75,-67.4,4.79
88,katsuura,75,JP,1603995972,47,60.01,35.13,140.3,17.22
89,severo-kurilsk,63,RU,1603995973,79,41.5,50.68,156.12,5.68
90,benguela,52,AO,1603995973,77,77.45,-12.58,13.41,9.93
91,sainte-savine,90,FR,1603995973,87,55.4,48.3,4.05,10.29
92,tual,67,ID,1603995966,70,82.8,-5.67,132.75,7.61
93,nizhniy tsasuchey,100,RU,1603995974,84,32.76,50.52,115.13,4.23
94,uige,100,AO,1603995974,93,69.82,-7.61,15.06,1.83
95,portland,90,US,1603995861,87,54.0,45.52,-122.68,5.82
96,zhigansk,91,RU,1603995975,90,-10.93,66.77,123.37,3.04
97,bubaque,94,GW,1603995975,73,84.38,11.28,-15.83,11.72
98,xining,0,CN,1603995976,61,40.23,36.62,101.77,1.92
99,narsaq,75,GL,1603995976,69,33.8,60.92,-46.05,2.66
100,godo,79,JP,1603995976,81,37.0,35.42,136.6,10.0
101,kavieng,83,PG,1603995976,73,82.18,-2.57,150.8,3.8
102,port hardy,100,CA,1603995977,89,54.05,50.7,-127.42,7.29
103,kirillov,40,RU,1603995977,87,46.4,59.86,38.38,6.71
104,horodnytsya,100,UA,1603995977,86,51.8,50.81,27.32,4.47
105,mar del plata,40,AR,1603995977,54,57.2,-38.0,-57.56,16.11
106,carnarvon,75,AU,1603995968,100,69.8,-24.87,113.63,6.93
107,ust-tsilma,99,RU,1603995978,92,38.98,65.44,52.15,7.43
108,norman wells,20,CA,1603995972,91,11.37,65.28,-126.83,3.38
109,hermanus,64,ZA,1603995960,71,53.01,-34.42,19.23,13.67
110,beaufort,20,MY,1603995979,83,82.4,5.35,115.75,8.05
111,constitucion,0,CL,1603995979,50,62.47,-35.33,-72.42,14.05
112,camopi,97,GF,1603995979,36,97.03,3.17,-52.32,4.12
113,samarai,81,PG,1603995979,80,79.38,-10.62,150.67,6.02
114,independence,90,US,1603995822,75,44.01,39.09,-94.42,19.46
115,thompson,79,CA,1603995981,96,23.18,55.74,-97.86,9.89
116,sao filipe,0,CV,1603995981,67,82.2,14.9,-24.5,3.71
117,manggar,76,ID,1603995963,80,81.1,-2.88,108.27,4.5
118,ancud,0,CL,1603995982,54,55.4,-41.87,-73.82,12.75
119,arraial do cabo,90,BR,1603995982,94,82.4,-22.97,-42.03,8.05
120,airai,32,TL,1603995982,100,60.8,-8.93,125.41,1.19
121,tiarei,20,PF,1603995983,78,80.6,-17.53,-149.33,9.17
122,tasiilaq,75,GL,1603995983,64,33.8,65.61,-37.64,10.29
123,ormara,0,PK,1603995983,56,76.37,25.21,64.64,4.14
124,saskylakh,2,RU,1603995963,84,-0.22,71.92,114.08,4.36
125,barrow,90,US,1603995901,85,12.2,71.29,-156.79,11.41
126,babenhausen,100,DE,1603995984,94,53.01,49.97,8.96,1.01
127,winchester,75,GB,1603995894,87,59.0,51.07,-1.32,13.87
128,puerto rondon,51,CO,1603995984,60,90.45,6.28,-71.1,6.64
129,sorland,75,NO,1603995965,56,41.0,67.67,12.69,18.34
130,taltal,27,CL,1603995985,57,63.9,-25.4,-70.48,7.02
131,arroyo,0,ES,1603995985,81,57.0,41.61,-4.8,4.7
132,touros,75,BR,1603995986,62,84.2,-5.2,-35.46,18.34
133,catia la mar,89,VE,1603995987,66,73.0,10.6,-67.03,8.05
134,lazaro cardenas,15,MX,1603995988,68,85.33,17.96,-102.2,4.16
135,linhares,97,BR,1603995988,73,84.18,-19.39,-40.07,9.95
136,zaysan,97,KZ,1603995988,92,29.86,47.47,84.87,5.84
137,emerald,0,AU,1603995989,72,59.0,-23.53,148.17,2.95
138,charters towers,0,AU,1603995984,53,67.03,-20.1,146.27,4.5
139,talara,0,PE,1603995989,61,77.0,-4.58,-81.27,19.46
140,kyaukse,99,MM,1603995990,86,76.48,21.6,96.13,2.98
141,bairiki,40,KI,1603995990,83,78.8,1.33,172.98,6.93
142,evensk,3,RU,1603995990,83,20.3,61.95,159.23,4.25
143,sao joao da barra,0,BR,1603995991,62,87.8,-21.64,-41.05,16.11
144,honningsvag,75,NO,1603995991,69,37.4,70.98,25.97,6.93
145,uglegorsk,96,RU,1603995991,76,38.68,49.08,142.03,6.89
146,yelizovo,97,RU,1603995992,100,35.6,53.19,158.38,2.24
147,hasaki,75,JP,1603995992,62,55.4,35.73,140.83,8.05
148,ilulissat,75,GL,1603995981,73,19.4,69.22,-51.1,5.82
149,road town,40,VG,1603995883,70,86.0,18.42,-64.62,11.41
150,port moresby,40,PG,1603995809,94,75.2,-9.44,147.18,5.82
151,edson,88,CA,1603995935,85,34.5,53.58,-116.44,5.97
152,victoria,92,HK,1603995937,83,75.99,22.29,114.16,1.01
153,bontang,100,ID,1603995994,80,77.99,0.13,117.5,3.24
154,ponta do sol,40,PT,1603995994,73,69.8,32.67,-17.1,10.29
155,vao,0,NC,1603995994,84,73.18,-22.67,167.48,15.82
156,chara,85,RU,1603995994,88,15.93,56.91,118.26,0.51
157,port lincoln,84,AU,1603995995,79,56.21,-34.73,135.87,22.15
158,rudnaya pristan,45,RU,1603995995,69,41.5,44.36,135.81,13.89
159,tignere,79,CM,1603995995,60,70.14,7.37,12.65,2.21
160,genhe,83,CN,1603995995,92,22.8,50.78,121.52,2.82
161,deputatskiy,98,RU,1603995996,93,1.22,69.3,139.9,0.96
162,manta,20,EC,1603995960,65,80.6,-0.95,-80.73,17.22
163,svetlyy,0,RU,1603995997,93,48.2,54.67,20.13,6.71
164,siocon,44,PH,1603995997,82,79.52,7.71,122.14,6.85
165,arara,75,BR,1603995998,43,87.8,-6.83,-35.76,14.99
166,broken hill,90,AU,1603995976,81,51.8,-31.95,141.43,12.75
167,bikaner,0,IN,1603995998,19,75.13,28.02,73.3,6.42
168,jadu,1,LY,1603995998,65,58.51,31.95,12.03,9.22
169,laje,40,BR,1603995999,53,83.41,-10.18,-40.97,9.1
170,klaksvik,3,FO,1603995999,93,46.4,62.23,-6.59,11.41
171,namibe,20,AO,1603996000,76,71.47,-15.2,12.15,10.4
172,svetlogorsk,97,BY,1603996000,93,47.21,52.63,29.73,6.62
173,diffa,6,NE,1603996000,17,86.29,13.32,12.61,6.85
174,hithadhoo,42,MV,1603995964,74,83.39,-0.6,73.08,11.39
175,tabou,61,CI,1603996001,85,78.76,4.42,-7.35,6.29
176,cidreira,100,BR,1603996001,67,64.53,-30.18,-50.21,13.06
177,price,1,US,1603995964,27,51.8,39.6,-110.81,4.7
178,mayo,90,US,1603996002,100,66.0,38.89,-76.51,8.05
179,codrington,84,AU,1603996002,92,50.88,-38.27,141.97,5.41
180,san juan,31,AR,1603996002,20,74.66,-31.54,-68.54,5.14
181,beyneu,96,KZ,1603995980,59,44.56,45.32,55.2,22.32
182,grand gaube,15,MU,1603995982,64,71.01,-20.01,57.66,7.0
183,padang,100,ID,1603996003,71,78.71,-0.95,100.35,2.62
184,chokurdakh,68,RU,1603995850,91,-5.17,70.63,147.92,5.86
185,niles,90,US,1603996002,65,46.99,42.02,-87.8,25.28
186,nedjo,25,ET,1603996003,85,58.42,9.5,35.5,3.27
187,lata,5,PT,1603995975,78,61.0,40.16,-8.33,1.19
188,matola,20,MZ,1603996004,83,77.0,-25.96,32.46,8.05
189,ossora,99,RU,1603996004,93,34.16,59.24,163.07,4.45
190,vila,0,PT,1603996004,87,54.0,42.03,-8.16,2.55
191,ugoofaaru,88,MV,1603996005,75,82.85,5.67,73.0,10.0
192,iwaki,56,JP,1603995968,65,55.99,37.05,140.88,3.0
193,taoudenni,0,ML,1603996005,13,87.48,22.68,-3.98,13.2
194,muros,2,ES,1603996005,80,57.0,42.78,-9.06,3.0
195,nuuk,75,GL,1603996006,73,24.8,64.18,-51.72,6.93
196,gizo,98,SB,1603996006,75,81.37,-8.1,156.84,8.7
197,labuhan,45,ID,1603995968,75,82.22,-6.88,112.21,8.72
198,srednekolymsk,100,RU,1603996006,94,3.34,67.45,153.68,1.1
199,tambacounda,0,SN,1603996007,38,93.2,13.75,-13.76,2.24
200,brora,100,GB,1603996007,87,50.0,58.01,-3.85,6.93
201,coquimbo,20,CL,1603995963,67,60.8,-29.95,-71.34,16.11
202,golden,20,US,1603996008,30,61.0,39.76,-105.22,5.82
203,vanino,100,RU,1603996008,86,39.11,49.09,140.25,10.27
204,henties bay,29,NA,1603996008,87,59.0,-22.12,14.28,8.01
205,paita,0,PE,1603996009,61,77.0,-5.09,-81.11,19.46
206,solnechnyy,13,RU,1603996009,94,29.59,50.72,136.63,3.62
207,matara,50,LK,1603996010,85,77.9,5.95,80.54,6.44
208,puerto escondido,40,MX,1603995982,62,86.0,15.85,-97.07,10.29
209,tambun,20,ID,1603996010,83,82.0,-6.26,107.07,5.82
210,kaitangata,78,NZ,1603996010,94,53.01,-46.28,169.85,1.01
211,alice springs,19,AU,1603996011,30,71.6,-23.7,133.88,11.41
212,broome,90,US,1603996012,93,45.0,42.25,-75.83,5.82
213,tiznit,48,MA,1603996012,20,79.68,29.58,-9.5,12.3
214,pitimbu,40,BR,1603996014,62,84.2,-7.47,-34.81,13.87
215,dzilam gonzalez,50,MX,1603996014,55,90.07,21.28,-88.93,1.68
216,nikolskoye,90,RU,1603996014,93,50.0,59.7,30.79,4.47
217,cassilandia,99,BR,1603995772,65,80.26,-19.11,-51.73,11.54
218,nicoya,75,CR,1603996015,62,89.6,10.15,-85.45,6.93
219,chitral,0,PK,1603996015,36,50.61,35.85,71.79,4.92
220,ullapool,100,GB,1603996015,50,48.0,57.9,-5.16,8.99
221,bilma,0,NE,1603996015,16,77.67,18.69,12.92,5.39
222,pangnirtung,61,CA,1603996016,85,8.91,66.15,-65.71,2.89
223,panjab,0,AF,1603996016,68,22.46,34.39,67.02,4.0
224,upernavik,97,GL,1603996016,86,20.35,72.79,-56.15,5.75
225,bredasdorp,100,ZA,1603996017,54,55.4,-34.53,20.04,10.29
226,sabzevar,0,IR,1603996017,32,50.43,36.21,57.68,6.87
227,marienburg,83,PL,1603996017,100,46.99,54.04,19.03,9.13
228,tiksi,99,RU,1603996018,94,5.4,71.69,128.87,8.66
229,perico,75,CU,1603996018,79,84.2,22.77,-81.02,3.36
230,dunedin,82,NZ,1603996018,91,53.01,-45.87,170.5,3.0
231,high level,31,CA,1603996018,87,23.05,58.52,-117.14,1.63
232,goundam,56,ML,1603996019,10,92.25,16.41,-3.67,10.92
233,sinnamary,86,GF,1603996019,72,85.95,5.38,-52.95,12.1
234,rio gallegos,0,AR,1603996020,28,59.0,-51.62,-69.22,27.51
235,noumea,0,NC,1603995933,72,68.0,-22.28,166.46,3.36
236,fortuna,1,US,1603996020,47,62.01,40.6,-124.16,3.36
237,aklavik,100,CA,1603996000,95,13.69,68.22,-135.01,3.29
238,tahoua,0,NE,1603996021,21,89.6,14.89,5.27,8.39
239,wattegama,100,LK,1603996021,89,76.06,6.8,81.48,1.66
240,kavaratti,60,IN,1603996021,74,82.72,10.57,72.64,7.56
241,khartoum,0,SD,1603996022,17,95.0,15.55,32.53,8.05
242,nagato,75,JP,1603996022,63,60.8,34.38,131.2,12.75
243,januaria,89,BR,1603996022,51,88.56,-15.48,-44.37,3.6
244,phalodi,0,IN,1603996023,17,78.49,27.13,72.37,4.72
245,sola,72,VU,1603996023,78,80.65,-13.88,167.55,19.26
246,luderitz,21,NA,1603996023,67,62.53,-26.65,15.16,28.57
247,marsabit,93,KE,1603996023,83,67.01,2.33,37.99,12.35
248,savannah bight,20,HN,1603996024,74,84.2,16.45,-85.85,10.02
249,bathsheba,40,BB,1603996024,94,77.0,13.22,-59.52,25.28
250,pevek,99,RU,1603995965,93,18.77,69.7,170.31,8.14
251,vila velha,20,BR,1603995945,70,86.0,-20.33,-40.29,19.46
252,olafsvik,100,IS,1603995978,79,43.97,64.89,-23.71,22.7
253,atar,0,MR,1603996025,12,91.83,20.52,-13.05,12.26
254,atasu,16,KZ,1603996025,82,32.25,48.68,71.64,9.73
255,yauya,82,PE,1603996025,38,66.6,-8.98,-77.3,4.18
256,yeppoon,90,AU,1603996026,88,73.4,-23.13,150.73,4.7
257,serabu,20,SL,1603996026,81,80.76,7.8,-12.05,4.09
258,quatre cocos,62,MU,1603996026,64,71.01,-20.21,57.76,7.0
259,seoul,20,KR,1603995829,70,44.6,37.57,126.98,2.19
260,visby,75,SE,1603996028,93,51.01,57.64,18.3,3.36
261,sitka,75,US,1603996028,86,41.0,57.05,-135.33,6.93
262,chupa,97,RU,1603996028,80,44.55,66.27,33.05,13.04
263,dikson,66,RU,1603996028,91,4.05,73.51,80.55,21.94
264,huarmey,51,PE,1603996029,65,70.48,-10.07,-78.15,11.18
265,prachuap khiri khan,100,TH,1603996029,97,73.22,12.22,99.75,1.99
266,piet retief,0,ZA,1603996029,33,67.24,-27.01,30.81,4.92
267,fez,0,MA,1603996030,30,71.6,34.04,-5.0,6.93
268,neuquen,0,AR,1603996030,30,71.6,-38.95,-68.06,5.82
269,weligama,53,LK,1603996030,85,78.19,5.97,80.42,6.33
270,zhuanghe,38,CN,1603995966,50,48.0,39.7,122.99,4.54
271,gorontalo,93,ID,1603996030,85,74.88,0.54,123.06,3.02
272,alofi,7,NU,1603996031,73,71.6,-19.06,-169.92,9.17
273,pak phanang,100,TH,1603996031,81,79.72,8.35,100.2,10.51
274,carauari,100,BR,1603996031,54,89.38,-4.88,-66.9,3.94
275,camalu,89,MX,1603996032,11,79.0,30.85,-116.07,5.01
276,narasannapeta,66,IN,1603996032,69,75.38,18.42,84.05,5.17
277,leningradskiy,28,RU,1603995977,87,14.49,69.38,178.42,12.24
278,pierre,90,US,1603996032,74,39.99,44.37,-100.35,13.87
279,lompoc,1,US,1603996033,31,69.8,34.64,-120.46,5.28
280,balkanabat,0,TM,1603996033,29,56.44,39.51,54.37,17.36
281,hamilton,90,US,1603995915,87,48.99,39.18,-84.53,17.22
282,east london,75,ZA,1603996033,82,64.4,-33.02,27.91,17.22
283,mana,100,GF,1603996034,66,87.15,5.66,-53.78,13.96
284,leh,59,IN,1603996034,66,30.88,34.17,77.58,4.18
285,nhulunbuy,93,AU,1603996034,83,69.8,-12.23,136.77,4.36
286,bandarbeyla,43,SO,1603996034,81,79.09,9.49,50.81,13.42
287,bethel,90,US,1603996035,93,46.4,41.37,-73.41,8.05
288,sur,0,OM,1603996035,59,71.83,22.57,59.53,0.76
289,osakarovka,75,KZ,1603996035,94,30.16,50.56,72.57,17.31
290,spalding,90,US,1603996036,88,79.0,33.27,-84.28,3.36
291,gilgit,83,PK,1603996036,43,52.16,35.92,74.31,5.03
292,balabac,58,PH,1603996036,79,82.15,7.99,117.06,8.99
293,pacific grove,1,US,1603996036,39,64.4,36.62,-121.92,6.93
294,kaeo,99,NZ,1603996036,95,59.0,-35.1,173.78,5.93
295,toora-khem,100,RU,1603996037,89,21.88,52.47,96.11,4.32
296,mirnyy,100,RU,1603996037,89,6.85,62.54,113.96,11.1
297,krasnoselkup,14,RU,1603996037,93,-3.23,65.7,82.47,2.44
298,faanui,4,PF,1603996038,77,79.65,-16.48,-151.75,4.45
299,castellarano,100,IT,1603996038,84,53.01,44.51,10.73,2.08
300,khatanga,0,RU,1603996038,86,3.43,71.97,102.5,14.76
301,carballo,0,ES,1603996038,67,59.0,43.21,-8.69,4.7
302,puerto cabezas,40,NI,1603996039,62,84.2,14.04,-83.39,11.41
303,kismayo,12,SO,1603996039,77,80.17,-0.36,42.55,13.53
304,thabazimbi,0,ZA,1603996039,18,78.06,-24.59,27.41,5.68
305,petropavlovsk-kamchatskiy,87,RU,1603996039,100,35.6,53.05,158.65,2.24
306,jurmala,90,LV,1603995979,100,50.0,56.97,23.77,2.24
307,comodoro rivadavia,0,AR,1603996040,36,62.6,-45.87,-67.5,10.29
308,san lorenzo,0,PY,1603995759,41,78.8,-25.33,-57.53,20.8
309,araouane,71,ML,1603996040,11,91.08,18.9,-3.53,4.56
310,son la,100,VN,1603996041,96,64.51,21.32,103.9,1.03
311,shingu,50,JP,1603996041,67,52.54,33.73,135.98,5.77
312,montlucon,94,FR,1603996041,91,55.0,46.33,2.6,1.01
313,lavrentiya,0,RU,1603996041,90,22.51,65.58,-171.0,7.87
314,ust-nera,100,RU,1603996042,88,8.31,64.57,143.2,1.36
315,orlik,100,RU,1603996043,88,19.71,52.52,99.83,2.39
316,dudinka,78,RU,1603996043,93,8.13,69.41,86.18,8.05
317,shimoda,67,JP,1603996043,68,53.01,34.67,138.95,14.16
318,soure,100,BR,1603996043,65,86.38,-0.72,-48.52,13.58
319,alihe,97,CN,1603996044,85,27.14,50.57,123.72,3.0
320,paamiut,85,GL,1603995988,88,28.2,61.99,-49.67,9.51
321,suba,53,PH,1603996044,77,83.55,10.84,121.01,13.91
322,coronado,20,US,1603996044,36,79.0,32.69,-117.18,5.82
323,olinda,20,BR,1603995861,66,84.2,-8.01,-34.86,11.41
324,ostrovnoy,62,RU,1603995980,82,43.36,68.05,39.51,26.31
325,lishui,43,CN,1603996045,84,59.47,28.46,119.91,1.28
326,huntingdon,100,GB,1603996045,84,57.99,52.33,-0.19,11.99
327,kalmunai,82,LK,1603995959,81,80.1,7.42,81.82,4.14
328,itarema,16,BR,1603995976,58,85.6,-2.92,-39.92,21.07
329,meulaboh,96,ID,1603995972,84,77.04,4.14,96.13,3.44
330,port said,0,EG,1603996046,74,78.8,31.26,32.28,9.17
331,sal rei,0,CV,1603996046,74,82.4,16.18,-22.92,21.92
332,yizheng,93,CN,1603996047,96,53.31,24.67,103.43,1.66
333,bull savanna,1,JM,1603996047,70,83.1,17.89,-77.59,7.36
334,indianola,75,US,1603996047,65,41.0,41.36,-93.56,12.75
335,dhidhdhoo,95,MV,1603996047,69,83.19,6.88,73.1,7.2
336,pisco,0,PE,1603995965,77,68.0,-13.7,-76.22,9.17
337,rio grande,90,BR,1603995821,63,68.0,-32.03,-52.1,7.0
338,duminichi,36,RU,1603996048,74,40.06,53.93,35.11,6.24
339,avera,90,US,1603996048,66,84.2,33.19,-82.53,12.75
340,sun valley,1,US,1603996049,21,59.0,39.6,-119.78,2.86
341,sulangan,100,PH,1603996049,77,83.34,11.14,123.72,14.58
342,hovd,0,MN,1603996049,73,29.46,48.01,91.64,7.67
343,gravdal,75,NO,1603996050,55,39.2,68.12,13.5,11.41
344,bay roberts,91,CA,1603996050,91,39.99,47.6,-53.26,11.99
345,sassandra,51,CI,1603996050,83,79.07,4.95,-6.08,5.73
346,namatanai,38,PG,1603996051,78,79.29,-3.67,152.43,5.46
347,amahai,86,ID,1603996051,100,79.0,-3.33,128.92,1.7
348,san patricio,20,US,1603995982,37,69.8,28.02,-97.52,20.8
349,dingle,100,PH,1603995964,89,76.3,11.0,122.67,6.73
350,galesong,80,ID,1603996051,75,81.66,-5.32,119.37,5.41
351,yatou,86,CN,1603996052,51,51.39,37.15,122.38,5.48
352,hobyo,36,SO,1603996052,73,80.47,5.35,48.53,10.92
353,shenkursk,100,RU,1603996036,92,46.54,62.11,42.9,9.35
354,marzuq,0,YE,1603996053,31,68.27,14.4,46.47,0.49
355,iralaya,98,HN,1603995981,73,84.7,15.0,-83.23,5.03
356,ola,96,RU,1603995985,92,28.65,59.58,151.28,5.32
357,estacion coahuila,5,MX,1603996053,11,78.8,32.19,-115.0,2.24
358,goure,19,NE,1603996053,18,86.0,13.98,10.27,3.0
359,nanortalik,100,GL,1603996054,95,31.82,60.14,-45.24,10.47
360,anadyr,0,RU,1603995990,84,6.8,64.75,177.48,8.95
361,zhicheng,0,CN,1603996054,78,61.0,30.3,111.5,2.59
362,awbari,0,LY,1603996054,38,69.85,26.59,12.78,10.74
363,nyagan,94,RU,1603996055,84,37.24,62.14,65.39,10.65
364,ilhabela,90,BR,1603995982,67,79.05,-23.78,-45.36,6.06
365,warrnambool,91,AU,1603995801,89,51.28,-38.38,142.48,5.91
366,salalah,0,OM,1603996055,65,80.6,17.02,54.09,3.36
367,tecoanapa,72,MX,1603996055,64,86.34,16.52,-98.75,5.86
368,monteiro,17,BR,1603996056,23,92.73,-7.89,-37.12,10.94
369,buraydah,0,SA,1603996056,22,71.6,26.33,43.98,3.36
370,aldan,100,RU,1603996056,95,8.94,58.6,125.39,1.36
371,veraval,56,IN,1603996056,68,80.2,20.9,70.37,6.78
372,sao caetano de odivelas,98,BR,1603996057,62,87.13,-0.75,-48.02,12.17
373,bagotville,7,AU,1603996057,100,57.0,-28.98,153.42,5.08
374,oksovskiy,93,RU,1603996057,92,47.28,62.61,39.9,7.45
375,melito di porto salvo,40,IT,1603996057,72,66.2,37.92,15.77,13.87
376,korem,0,ET,1603996058,42,54.21,12.51,39.52,4.65
377,nichinan,81,JP,1603996058,74,65.16,31.6,131.37,7.09
378,sakaiminato,40,JP,1603996059,87,48.2,35.55,133.23,3.36
379,husavik,90,IS,1603996060,75,42.8,66.04,-17.34,8.05
380,pasaco,0,GT,1603996061,74,84.2,13.98,-90.21,4.7
381,omsukchan,76,RU,1603996061,92,8.6,62.53,155.8,5.35
382,san quintin,72,MX,1603996061,32,72.79,30.48,-115.95,6.04
383,ndele,88,CF,1603996061,53,78.35,8.41,20.65,2.08
384,akyab,88,MM,1603996061,87,80.76,20.15,92.9,8.41
385,celestun,31,MX,1603996062,66,84.24,20.87,-90.4,4.52
386,alakurtti,100,RU,1603996062,95,36.0,66.97,30.35,3.0
387,markova,93,UA,1603996063,93,42.8,48.68,24.41,4.16
388,lufkin,75,US,1603996064,58,57.2,31.34,-94.73,14.99
389,tezu,3,IN,1603996064,38,72.28,27.92,96.17,4.07
390,benjamin aceval,0,PY,1603996064,41,78.8,-24.97,-57.57,20.8
391,vanimo,100,PG,1603996064,84,77.88,-2.67,141.3,4.94
392,yulara,0,AU,1603996065,32,66.2,-25.24,130.99,9.17
393,san carlos,83,VE,1603996065,56,91.24,9.66,-68.58,2.62
394,karratha,41,AU,1603996065,87,71.28,-20.74,116.85,12.24
395,mikhaylovka,100,RU,1603996065,57,48.99,50.06,43.24,5.99
396,iskateley,100,RU,1603996065,93,37.98,67.68,53.15,18.5
397,lorengau,100,PG,1603996066,79,81.63,-2.02,147.27,7.94
398,marsa matruh,0,EG,1603996066,53,73.4,31.35,27.25,11.41
399,vila franca do campo,40,PT,1603995977,94,69.8,37.72,-25.43,16.11
400,sao miguel do araguaia,94,BR,1603996018,51,87.51,-13.28,-50.16,4.54
401,beja,40,TN,1603996067,72,66.2,36.73,9.18,10.29
402,san ignacio,40,BZ,1603996067,70,87.8,17.16,-89.07,6.93
403,sarana,0,RU,1603996067,93,32.29,56.48,57.73,9.53
404,micheweni,17,TZ,1603996068,79,78.89,-4.97,39.83,12.97
405,cherskiy,100,RU,1603996068,91,6.66,68.75,161.3,4.59
406,syedove,80,UA,1603996068,100,57.0,47.08,38.16,15.01
407,llata,96,PE,1603996069,50,63.45,-9.42,-76.78,7.27
408,trinidad,90,BO,1603996069,100,69.8,-14.83,-64.9,8.05
409,los llanos de aridane,75,ES,1603996069,68,71.6,28.66,-17.92,14.99
410,sandusky,100,US,1603996069,82,48.99,41.35,-83.13,4.0
411,berbera,4,SO,1603996070,70,82.85,10.44,45.01,8.43
412,rawson,0,AR,1603996070,28,64.36,-43.3,-65.1,5.14
413,nome,40,US,1603996070,92,19.99,64.5,-165.41,3.36
414,jales,91,BR,1603996071,72,77.31,-20.27,-50.55,9.8
415,thiruvananthapuram,44,IN,1603996071,81,77.63,8.48,76.92,3.58
416,mahebourg,47,MU,1603996071,64,71.01,-20.41,57.7,7.0
417,gaogou,98,CN,1603996072,66,56.5,34.02,119.19,5.12
418,klyuchi,100,RU,1603996003,85,34.99,52.27,79.17,17.25
419,vengerovo,100,RU,1603996072,97,31.8,55.68,76.75,14.05
420,bengkulu,99,ID,1603996003,88,75.24,-3.8,102.27,5.08
421,tulun,99,RU,1603996073,95,28.36,54.56,100.58,4.25
422,port blair,92,IN,1603996073,82,80.65,11.67,92.75,7.23
423,gasa,0,PS,1603996073,100,77.0,31.5,34.47,1.01
424,ulladulla,75,AU,1603996073,100,55.4,-35.35,150.47,6.93
425,haimen,0,CN,1603996074,73,73.4,23.19,116.61,4.47
426,gold coast,2,AU,1603996074,93,64.0,-28.0,153.43,3.36
427,kuching,20,MY,1603996074,94,77.0,1.55,110.33,2.24
428,almaznyy,20,RU,1603996074,71,55.4,48.04,40.05,17.9
429,chimbote,19,PE,1603995872,68,68.94,-9.09,-78.58,13.06
430,key largo,32,US,1603996075,1,84.99,25.09,-80.45,5.01
431,te anau,100,NZ,1603996075,91,52.57,-45.42,167.72,1.52
432,bar harbor,90,US,1603996076,66,48.99,44.39,-68.2,4.68
433,talnakh,94,RU,1603995978,88,6.24,69.49,88.4,6.42
434,soe,10,ID,1603996076,90,67.8,-9.86,124.28,2.93
435,mount gambier,90,AU,1603996077,93,50.0,-37.83,140.77,4.7
436,la libertad,75,EC,1603996077,69,80.6,-2.23,-80.9,9.17
437,teonthar,0,IN,1603996077,31,72.32,24.98,81.65,3.87
438,pandan,94,PH,1603996077,85,80.73,14.05,124.17,11.3
439,hervey bay,0,AU,1603996078,88,68.0,-25.3,152.85,1.01
440,porto novo,40,BJ,1603996078,83,82.4,6.5,2.6,10.29
441,marawi,91,PH,1603996078,95,75.0,8.0,124.29,3.0
442,brae,20,GB,1603995941,87,48.2,60.4,-1.35,19.46
443,totonicapan,90,GT,1603996079,68,71.01,14.92,-91.37,6.93
444,plettenberg bay,100,ZA,1603996079,72,57.87,-34.05,23.37,14.74
445,zhangjiakou,0,CN,1603996079,53,41.36,40.81,114.88,1.48
446,qasigiannguit,75,GL,1603996080,73,19.4,68.82,-51.19,5.82
447,dwarka,0,IN,1603996080,58,80.89,22.24,68.97,8.41
448,bouca,85,CF,1603996080,93,72.37,6.51,18.27,6.46
449,guerrero negro,46,MX,1603996081,20,76.24,27.98,-114.06,2.68
450,nieuwpoort,75,BE,1603996081,100,55.4,51.12,2.77,13.87
451,belmonte,75,BR,1603996081,74,80.6,-15.86,-38.88,17.22
452,rundu,78,NA,1603996082,34,81.64,-17.93,19.77,2.98
453,grindavik,75,IS,1603996082,87,44.6,63.84,-22.43,12.75
454,tomatlan,58,MX,1603996082,55,90.28,19.93,-105.25,3.56
455,wanning,48,CN,1603996082,91,76.73,18.8,110.4,9.98
456,kedgwick,84,CA,1603996083,87,33.55,47.64,-67.34,10.25
457,noblesville,100,US,1603996083,88,46.0,40.05,-86.01,3.0
458,antigonish,99,CA,1603996083,76,46.99,45.62,-62.0,4.0
459,baglan,0,AF,1603996083,65,40.78,36.13,68.71,2.62
460,gushikawa,20,JP,1603996084,88,73.4,26.35,127.87,4.7
461,zelenoborskiy,100,RU,1603996084,88,43.61,66.84,32.36,14.29
462,saint-joseph,40,RE,1603996085,64,71.6,-21.37,55.62,19.46
463,zalantun,18,CN,1603996086,83,29.48,48.0,122.72,4.81
464,caxito,40,AO,1603996087,83,78.8,-8.58,13.66,10.29
465,mahon,0,ES,1603996087,77,60.8,39.89,4.27,2.24
466,ko samui,100,TH,1603996088,74,82.67,9.54,99.94,17.58
467,barroso,40,BR,1603996088,35,84.2,-21.19,-43.98,4.7
468,laguna,1,US,1603996088,39,66.99,38.42,-121.42,2.89
469,caravelas,96,BR,1603996088,68,82.44,-17.71,-39.25,13.76
470,kununurra,80,AU,1603996088,88,78.8,-15.77,128.73,5.82
471,bima,35,ID,1603996089,79,78.04,-8.47,118.72,2.17
472,cap malheureux,11,MU,1603995985,64,71.01,-19.98,57.61,7.0
473,khani,0,GE,1603995967,72,62.6,41.96,42.96,5.82
474,saint pete beach,40,US,1603996089,79,88.0,27.73,-82.74,16.11
475,hami,100,CN,1603995994,49,47.32,42.8,93.45,12.68
476,eureka,1,US,1603996033,58,62.01,40.8,-124.16,3.36
477,ekibastuz,100,KZ,1603996090,79,36.37,51.67,75.37,22.37
478,manokwari,98,ID,1603996090,71,80.28,-0.87,134.08,4.68
479,maudaha,0,IN,1603996090,29,72.84,25.68,80.12,1.23
480,neryungri,100,RU,1603996090,93,12.25,56.67,124.65,5.14
481,geilo,16,NO,1603996091,85,30.99,60.53,8.21,5.73
482,jacksonville,75,US,1603995997,58,90.0,30.33,-81.66,17.22
483,shuiji,80,CN,1603996091,87,61.5,27.42,118.34,2.89
484,goias,61,BR,1603996091,58,83.52,-15.58,-49.64,4.63
485,bowen,75,AU,1603996092,93,66.2,-20.02,148.23,3.69
486,songkhla,75,TH,1603996092,100,77.0,6.83,100.67,2.62
487,batagay,100,RU,1603996092,93,1.85,67.63,134.63,0.74
488,killybegs,90,IE,1603996092,87,57.2,54.63,-8.45,9.17
489,calama,0,CL,1603995972,9,71.6,-22.47,-68.93,23.04
490,borovoy,90,RU,1603996093,85,23.0,55.43,86.08,11.18
491,qom,0,IR,1603996093,37,56.61,34.64,50.88,3.42
492,sterling,90,US,1603995846,93,63.0,39.01,-77.43,6.93
493,palafrugell,48,ES,1603996095,51,62.01,41.92,3.16,4.03
494,ngunguru,99,NZ,1603996095,95,59.0,-35.62,174.5,7.29
495,logan lake,100,CA,1603996095,91,37.49,50.5,-120.8,3.38
496,ornskoldsvik,0,SE,1603996096,100,37.4,63.29,18.72,2.24
497,tessalit,0,ML,1603996096,13,85.06,20.2,1.01,6.8
498,ahipara,100,NZ,1603996096,88,58.8,-35.17,173.17,7.36
499,taman,75,RU,1603996096,82,66.2,45.21,36.72,6.71
500,praxedis guerrero,5,MX,1603996096,43,59.0,31.37,-106.02,4.68
501,xuddur,85,SO,1603996097,77,75.9,4.12,43.89,9.1
502,waingapu,45,ID,1603996097,79,80.26,-9.66,120.26,5.41
503,belaya gora,100,RU,1603996097,95,5.32,68.53,146.42,4.52
504,noshiro,99,JP,1603996098,68,48.4,40.2,140.02,16.53
505,college,90,US,1603996098,78,17.6,64.86,-147.8,1.3
506,simeonovgrad,30,BG,1603996098,10,59.0,42.03,25.83,2.8
507,santa rosalia,48,MX,1603996098,41,74.26,27.32,-112.28,6.55
508,itacoatiara,99,BR,1603996098,36,99.37,-3.14,-58.44,3.22
509,awjilah,35,LY,1603996099,48,70.83,29.11,21.29,14.65
510,calvinia,0,ZA,1603996099,64,51.44,-31.47,19.78,10.02
511,ifakara,19,TZ,1603996099,51,80.06,-8.13,36.68,4.36
512,nizhniy odes,100,RU,1603996099,96,37.26,63.64,54.86,9.66
513,baykit,99,RU,1603996100,93,12.7,61.67,96.37,1.43
514,shache,96,CN,1603996100,47,41.63,38.42,77.24,5.53
515,north myrtle beach,90,US,1603995977,78,80.6,33.82,-78.68,27.51
516,tautira,20,PF,1603995989,78,80.6,-17.73,-149.15,9.17
517,bara,0,NG,1603996101,32,81.55,10.37,10.73,1.48
518,singaraja,89,ID,1603996085,75,80.08,-8.11,115.09,4.21
519,walvis bay,21,NA,1603996102,63,66.2,-22.96,14.51,14.99
520,izyum,81,UA,1603996103,69,48.74,49.21,37.25,8.3
521,boende,100,CD,1603996103,93,69.71,-0.22,20.87,1.59
522,verkhniye tatyshly,0,RU,1603996103,96,30.11,56.29,55.86,8.21
523,abu samrah,17,SY,1603996103,57,68.63,35.3,37.18,4.83
524,atambua,18,ID,1603996104,83,75.16,-9.11,124.89,2.24
525,mount hagen,100,PG,1603996104,90,57.76,-5.86,144.23,1.39
526,saint-francois,75,FR,1603996104,93,54.0,46.42,3.91,2.24
527,hit,77,IQ,1603996105,21,70.11,33.64,42.83,3.15
528,richards bay,5,ZA,1603996105,82,74.5,-28.78,32.04,9.69
529,aripuana,97,BR,1603996105,38,97.21,-9.17,-60.63,2.71
530,umm lajj,0,SA,1603996105,53,80.94,25.02,37.27,3.11
531,antalaha,63,MG,1603996105,80,73.71,-14.9,50.28,9.95
532,baruun-urt,48,MN,1603996106,57,38.66,46.68,113.28,13.69
533,asau,44,RO,1603996106,83,53.01,46.43,26.4,4.54
534,tazovskiy,0,RU,1603996106,93,-2.4,67.47,78.7,7.94
535,changde,3,CN,1603996107,78,58.21,29.05,111.68,3.24
536,puerto carreno,48,CO,1603996108,55,91.87,6.19,-67.49,7.18
537,tateyama,73,JP,1603996108,45,59.0,34.98,139.87,5.99
538,lokosovo,100,RU,1603995982,98,33.44,61.13,74.82,3.8
539,anchorage,90,US,1603996099,79,26.01,61.22,-149.9,5.1
540,miri,40,MY,1603995992,94,77.0,4.41,114.01,5.23
541,xicotencatl,66,MX,1603996109,38,75.99,23.02,-98.88,1.99
542,sioux lookout,0,CA,1603996109,82,25.95,50.1,-91.92,3.04
543,sanmenxia,0,CN,1603996109,69,54.12,34.77,111.18,6.96
544,la ronge,100,CA,1603996110,94,32.68,55.1,-105.28,9.22
545,ravar,21,IR,1603996110,35,54.93,31.27,56.81,5.01
546,sioni,0,GE,1603996110,82,55.4,41.99,45.02,4.7
547,waipawa,96,NZ,1603996110,93,59.0,-41.41,175.52,14.99
548,port macquarie,40,AU,1603996111,100,51.01,-31.43,152.92,3.42
549,nouadhibou,58,MR,1603996112,64,73.4,20.93,-17.03,14.99
